{
"type": "FeatureCollection",
"name": "heatmap",
"crs": { "type": "name", "properties": { "name": "urn:ogc:def:crs:OGC:1.3:CRS84" } },
"features": [
{ "type": "Feature", "properties": { "qu_ame": "罗湖区", "jd_name": "东湖街道", "heat_value": "36" }, "geometry": { "type": "Point", "coordinates": [ 114.173305036209186, 22.59205043649747 ] } },
{ "type": "Feature", "properties": { "qu_ame": "罗湖区", "jd_name": "黄贝街道", "heat_value": "30" }, "geometry": { "type": "Point", "coordinates": [ 114.14031211973419, 22.556161160492923 ] } },
{ "type": "Feature", "properties": { "qu_ame": "宝安区", "jd_name": "福永街道", "heat_value": "55" }, "geometry": { "type": "Point", "coordinates": [ 113.822219841806458, 22.665621682569959 ] } },
{ "type": "Feature", "properties": { "qu_ame": "福田区", "jd_name": "南园街道", "heat_value": "26" }, "geometry": { "type": "Point", "coordinates": [ 114.088634906147021, 22.537893928582491 ] } },
{ "type": "Feature", "properties": { "qu_ame": "龙岗区", "jd_name": "南湾街道", "heat_value": "65" }, "geometry": { "type": "Point", "coordinates": [ 114.139562844977561, 22.631906290555875 ] } },
{ "type": "Feature", "properties": { "qu_ame": "盐田区", "jd_name": "梅沙街道", "heat_value": "51" }, "geometry": { "type": "Point", "coordinates": [ 114.313059308556547, 22.610878438252989 ] } },
{ "type": "Feature", "properties": { "qu_ame": "光明区", "jd_name": "凤凰街道", "heat_value": "88" }, "geometry": { "type": "Point", "coordinates": [ 113.930829450662614, 22.736575884531167 ] } },
{ "type": "Feature", "properties": { "qu_ame": "罗湖区", "jd_name": "莲塘街道", "heat_value": "37" }, "geometry": { "type": "Point", "coordinates": [ 114.177283419802208, 22.568545264397038 ] } },
{ "type": "Feature", "properties": { "qu_ame": "龙岗区", "jd_name": "龙岗街道", "heat_value": "68" }, "geometry": { "type": "Point", "coordinates": [ 114.242969502647782, 22.756087654987716 ] } },
{ "type": "Feature", "properties": { "qu_ame": "龙岗区", "jd_name": "坪地街道", "heat_value": "69" }, "geometry": { "type": "Point", "coordinates": [ 114.304629589112906, 22.779260417488853 ] } },
{ "type": "Feature", "properties": { "qu_ame": "坪山区", "jd_name": "龙田街道", "heat_value": "81" }, "geometry": { "type": "Point", "coordinates": [ 114.360371996331693, 22.731535059866253 ] } },
{ "type": "Feature", "properties": { "qu_ame": "宝安区", "jd_name": "燕罗街道", "heat_value": "60" }, "geometry": { "type": "Point", "coordinates": [ 113.861418155339294, 22.818583238855535 ] } },
{ "type": "Feature", "properties": { "qu_ame": "龙华区", "jd_name": "观湖街道", "heat_value": "73" }, "geometry": { "type": "Point", "coordinates": [ 114.067749406175039, 22.69645113263654 ] } },
{ "type": "Feature", "properties": { "qu_ame": "坪山区", "jd_name": "石井街道", "heat_value": "82" }, "geometry": { "type": "Point", "coordinates": [ 114.400639688317582, 22.682050528449579 ] } },
{ "type": "Feature", "properties": { "qu_ame": "龙华区", "jd_name": "民治街道", "heat_value": "74" }, "geometry": { "type": "Point", "coordinates": [ 114.029136221702814, 22.615512400644899 ] } },
{ "type": "Feature", "properties": { "qu_ame": "龙岗区", "jd_name": "平湖街道", "heat_value": "66" }, "geometry": { "type": "Point", "coordinates": [ 114.127563247470533, 22.684096686094332 ] } },
{ "type": "Feature", "properties": { "qu_ame": "盐田区", "jd_name": "盐田街道", "heat_value": "50" }, "geometry": { "type": "Point", "coordinates": [ 114.260713543554502, 22.603329001965893 ] } },
{ "type": "Feature", "properties": { "qu_ame": "光明区", "jd_name": "光明街道", "heat_value": "85" }, "geometry": { "type": "Point", "coordinates": [ 113.961651595112983, 22.752095544397868 ] } },
{ "type": "Feature", "properties": { "qu_ame": "罗湖区", "jd_name": "南湖街道", "heat_value": "31" }, "geometry": { "type": "Point", "coordinates": [ 114.11550496402073, 22.53956966851489 ] } },
{ "type": "Feature", "properties": { "qu_ame": "龙华区", "jd_name": "福城街道", "heat_value": "77" }, "geometry": { "type": "Point", "coordinates": [ 114.01537070669805, 22.720907358110125 ] } },
{ "type": "Feature", "properties": { "qu_ame": "福田区", "jd_name": "莲花街道", "heat_value": "24" }, "geometry": { "type": "Point", "coordinates": [ 114.047623605249413, 22.554061622541759 ] } },
{ "type": "Feature", "properties": { "qu_ame": "罗湖区", "jd_name": "桂园街道", "heat_value": "32" }, "geometry": { "type": "Point", "coordinates": [ 114.10405473982415, 22.547931523477644 ] } },
{ "type": "Feature", "properties": { "qu_ame": "福田区", "jd_name": "沙头街道", "heat_value": "27" }, "geometry": { "type": "Point", "coordinates": [ 114.022451546145348, 22.52915804556363 ] } },
{ "type": "Feature", "properties": { "qu_ame": "龙岗区", "jd_name": "坂田街道", "heat_value": "62" }, "geometry": { "type": "Point", "coordinates": [ 114.067740836682148, 22.637396248873774 ] } },
{ "type": "Feature", "properties": { "qu_ame": "龙岗区", "jd_name": "龙城街道", "heat_value": "67" }, "geometry": { "type": "Point", "coordinates": [ 114.222662282843956, 22.709621294336866 ] } },
{ "type": "Feature", "properties": { "qu_ame": "福田区", "jd_name": "香蜜湖街道", "heat_value": "28" }, "geometry": { "type": "Point", "coordinates": [ 114.012581923410252, 22.547672842418716 ] } },
{ "type": "Feature", "properties": { "qu_ame": "南山区", "jd_name": "蛇口街道", "heat_value": "43" }, "geometry": { "type": "Point", "coordinates": [ 113.870479717047075, 22.463877441633191 ] } },
{ "type": "Feature", "properties": { "qu_ame": "南山区", "jd_name": "南山街道", "heat_value": "41" }, "geometry": { "type": "Point", "coordinates": [ 113.890785397188893, 22.513004416577125 ] } },
{ "type": "Feature", "properties": { "qu_ame": "光明区", "jd_name": "马田街道", "heat_value": "90" }, "geometry": { "type": "Point", "coordinates": [ 113.881760647191143, 22.76980029986381 ] } },
{ "type": "Feature", "properties": { "qu_ame": "宝安区", "jd_name": "石岩街道", "heat_value": "61" }, "geometry": { "type": "Point", "coordinates": [ 113.925713461575, 22.67622951189891 ] } },
{ "type": "Feature", "properties": { "qu_ame": "坪山区", "jd_name": "坑梓街道", "heat_value": "79" }, "geometry": { "type": "Point", "coordinates": [ 114.391434859111371, 22.750382927302962 ] } },
{ "type": "Feature", "properties": { "qu_ame": "光明区", "jd_name": "新湖街道", "heat_value": "87" }, "geometry": { "type": "Point", "coordinates": [ 113.949527659402378, 22.793911705787377 ] } },
{ "type": "Feature", "properties": { "qu_ame": "罗湖区", "jd_name": "笋岗街道", "heat_value": "34" }, "geometry": { "type": "Point", "coordinates": [ 114.109714459292064, 22.568524795838261 ] } },
{ "type": "Feature", "properties": { "qu_ame": "大鹏新区", "jd_name": "葵涌街道", "heat_value": "92" }, "geometry": { "type": "Point", "coordinates": [ 114.448424575597258, 22.636418038150182 ] } },
{ "type": "Feature", "properties": { "qu_ame": "大鹏新区", "jd_name": "大鹏街道", "heat_value": "91" }, "geometry": { "type": "Point", "coordinates": [ 114.503034826004196, 22.601196332092901 ] } },
{ "type": "Feature", "properties": { "qu_ame": "大鹏新区", "jd_name": "南澳街道", "heat_value": "93" }, "geometry": { "type": "Point", "coordinates": [ 114.537555810886118, 22.514181682774037 ] } },
{ "type": "Feature", "properties": { "qu_ame": "龙岗区", "jd_name": "布吉街道", "heat_value": "63" }, "geometry": { "type": "Point", "coordinates": [ 114.119032836857059, 22.606996488988905 ] } },
{ "type": "Feature", "properties": { "qu_ame": "盐田区", "jd_name": "海山街道", "heat_value": "49" }, "geometry": { "type": "Point", "coordinates": [ 114.234083296064426, 22.565547193128623 ] } },
{ "type": "Feature", "properties": { "qu_ame": "罗湖区", "jd_name": "东门街道", "heat_value": "33" }, "geometry": { "type": "Point", "coordinates": [ 114.116744425899412, 22.552414129690728 ] } },
{ "type": "Feature", "properties": { "qu_ame": "盐田区", "jd_name": "沙头角街道", "heat_value": "48" }, "geometry": { "type": "Point", "coordinates": [ 114.213794061129462, 22.56417134863587 ] } },
{ "type": "Feature", "properties": { "qu_ame": "龙岗区", "jd_name": "吉华街道", "heat_value": "70" }, "geometry": { "type": "Point", "coordinates": [ 114.099276063189862, 22.633755387738443 ] } },
{ "type": "Feature", "properties": { "qu_ame": "南山区", "jd_name": "西丽街道", "heat_value": "47" }, "geometry": { "type": "Point", "coordinates": [ 113.94757577360113, 22.609610272287618 ] } },
{ "type": "Feature", "properties": { "qu_ame": "南山区", "jd_name": "招商街道", "heat_value": "44" }, "geometry": { "type": "Point", "coordinates": [ 113.90138995325232, 22.483010249981579 ] } },
{ "type": "Feature", "properties": { "qu_ame": "坪山区", "jd_name": "马峦街道", "heat_value": "84" }, "geometry": { "type": "Point", "coordinates": [ 114.344046504824007, 22.657101869270672 ] } },
{ "type": "Feature", "properties": { "qu_ame": "宝安区", "jd_name": "航城街道", "heat_value": "54" }, "geometry": { "type": "Point", "coordinates": [ 113.847915673271288, 22.64252236810756 ] } },
{ "type": "Feature", "properties": { "qu_ame": "坪山区", "jd_name": "碧岭街道", "heat_value": "83" }, "geometry": { "type": "Point", "coordinates": [ 114.295477217581933, 22.661685555987628 ] } },
{ "type": "Feature", "properties": { "qu_ame": "龙华区", "jd_name": "龙华街道", "heat_value": "75" }, "geometry": { "type": "Point", "coordinates": [ 114.03237092846517, 22.662370682596052 ] } },
{ "type": "Feature", "properties": { "qu_ame": "龙岗区", "jd_name": "横岗街道", "heat_value": "64" }, "geometry": { "type": "Point", "coordinates": [ 114.188305803025187, 22.641704711823184 ] } },
{ "type": "Feature", "properties": { "qu_ame": "龙岗区", "jd_name": "园山街道", "heat_value": "72" }, "geometry": { "type": "Point", "coordinates": [ 114.228863540193643, 22.645062570912412 ] } },
{ "type": "Feature", "properties": { "qu_ame": "龙华区", "jd_name": "观澜街道", "heat_value": "78" }, "geometry": { "type": "Point", "coordinates": [ 114.058576346279239, 22.738250948056745 ] } },
{ "type": "Feature", "properties": { "qu_ame": "坪山区", "jd_name": "坪山街道", "heat_value": "80" }, "geometry": { "type": "Point", "coordinates": [ 114.332134279276545, 22.697732678341868 ] } },
{ "type": "Feature", "properties": { "qu_ame": "龙岗区", "jd_name": "宝龙街道", "heat_value": "71" }, "geometry": { "type": "Point", "coordinates": [ 114.294634304257443, 22.707148322743649 ] } },
{ "type": "Feature", "properties": { "qu_ame": "宝安区", "jd_name": "西乡街道", "heat_value": "53" }, "geometry": { "type": "Point", "coordinates": [ 113.868826584291043, 22.596219079828597 ] } },
{ "type": "Feature", "properties": { "qu_ame": "南山区", "jd_name": "沙河街道", "heat_value": "42" }, "geometry": { "type": "Point", "coordinates": [ 113.971649438844977, 22.53967055516495 ] } },
{ "type": "Feature", "properties": { "qu_ame": "福田区", "jd_name": "福田街道", "heat_value": "21" }, "geometry": { "type": "Point", "coordinates": [ 114.064855728618014, 22.530684340236157 ] } },
{ "type": "Feature", "properties": { "qu_ame": "南山区", "jd_name": "桃源街道", "heat_value": "46" }, "geometry": { "type": "Point", "coordinates": [ 113.984407297721702, 22.587815571936655 ] } },
{ "type": "Feature", "properties": { "qu_ame": "光明区", "jd_name": "公明街道", "heat_value": "86" }, "geometry": { "type": "Point", "coordinates": [ 113.900262782664697, 22.80654243324134 ] } },
{ "type": "Feature", "properties": { "qu_ame": "宝安区", "jd_name": "松岗街道", "heat_value": "59" }, "geometry": { "type": "Point", "coordinates": [ 113.837579975440974, 22.765795079457341 ] } },
{ "type": "Feature", "properties": { "qu_ame": "福田区", "jd_name": "园岭街道", "heat_value": "29" }, "geometry": { "type": "Point", "coordinates": [ 114.091318640257271, 22.55930901347239 ] } },
{ "type": "Feature", "properties": { "qu_ame": "南山区", "jd_name": "南头街道", "heat_value": "40" }, "geometry": { "type": "Point", "coordinates": [ 113.916467970890778, 22.549654430262812 ] } },
{ "type": "Feature", "properties": { "qu_ame": "福田区", "jd_name": "华富街道", "heat_value": "22" }, "geometry": { "type": "Point", "coordinates": [ 114.072416871206656, 22.558596874214835 ] } },
{ "type": "Feature", "properties": { "qu_ame": "罗湖区", "jd_name": "东晓街道", "heat_value": "38" }, "geometry": { "type": "Point", "coordinates": [ 114.121288278753582, 22.584646132453763 ] } },
{ "type": "Feature", "properties": { "qu_ame": "南山区", "jd_name": "粤海街道", "heat_value": "45" }, "geometry": { "type": "Point", "coordinates": [ 113.938129652906383, 22.530911711960062 ] } },
{ "type": "Feature", "properties": { "qu_ame": "福田区", "jd_name": "福保街道", "heat_value": "20" }, "geometry": { "type": "Point", "coordinates": [ 114.048542846137721, 22.51444073471114 ] } },
{ "type": "Feature", "properties": { "qu_ame": "宝安区", "jd_name": "新桥街道", "heat_value": "58" }, "geometry": { "type": "Point", "coordinates": [ 113.843397680715071, 22.722430771731961 ] } },
{ "type": "Feature", "properties": { "qu_ame": "福田区", "jd_name": "华强北街道", "heat_value": "23" }, "geometry": { "type": "Point", "coordinates": [ 114.087060470245021, 22.548066067141992 ] } },
{ "type": "Feature", "properties": { "qu_ame": "龙华区", "jd_name": "大浪街道", "heat_value": "76" }, "geometry": { "type": "Point", "coordinates": [ 113.988954071522429, 22.675046918594447 ] } },
{ "type": "Feature", "properties": { "qu_ame": "罗湖区", "jd_name": "清水河街道", "heat_value": "39" }, "geometry": { "type": "Point", "coordinates": [ 114.086512754267019, 22.585147722856362 ] } },
{ "type": "Feature", "properties": { "qu_ame": "光明区", "jd_name": "玉塘街道", "heat_value": "89" }, "geometry": { "type": "Point", "coordinates": [ 113.896546331400558, 22.717548965867437 ] } },
{ "type": "Feature", "properties": { "qu_ame": "福田区", "jd_name": "梅林街道", "heat_value": "25" }, "geometry": { "type": "Point", "coordinates": [ 114.032750231570077, 22.573481986963792 ] } },
{ "type": "Feature", "properties": { "qu_ame": "宝安区", "jd_name": "新安街道", "heat_value": "52" }, "geometry": { "type": "Point", "coordinates": [ 113.894866140330763, 22.572072311480444 ] } },
{ "type": "Feature", "properties": { "qu_ame": "宝安区", "jd_name": "福海街道", "heat_value": "56" }, "geometry": { "type": "Point", "coordinates": [ 113.788286088189537, 22.688360381460299 ] } },
{ "type": "Feature", "properties": { "qu_ame": "罗湖区", "jd_name": "翠竹街道", "heat_value": "35" }, "geometry": { "type": "Point", "coordinates": [ 114.125914815989717, 22.567164040792353 ] } },
{ "type": "Feature", "properties": { "qu_ame": "宝安区", "jd_name": "沙井街道", "heat_value": "57" }, "geometry": { "type": "Point", "coordinates": [ 113.790015703603075, 22.736372489240264 ] } }
]
}
